{
  "slug": "fukui-castle-loop",
  "heroCheckpointId": "section-1",
  "checkpointsTitle": "コースの雰囲気",
  "intro": "福井城址の南側から内堀と県庁周辺を囲み、福井駅側の市街地をつないで一周する約3.4kmのコースです。石垣と堀、御廊下橋、山里口御門などを眺められ、駅周辺のホテルから短時間で走れます。ほぼ平坦で朝ランにも使いやすい一方、県庁周辺の歩道と交差点では通行者や車に注意してください。",
  "warnings": [
    {
      "title": "一般利用者と交通ルールを優先してください",
      "body": "ランニング専用路ではない区間を含む場合があります。信号を守り、歩道・公園・河川敷では歩行者を優先し、混雑時は歩いて通過してください。",
      "url": "https://www.npa.go.jp/bureau/traffic/koutsuuannzennjyouhou.html",
      "linkLabel": "警察庁の交通安全情報"
    },
    {
      "title": "コースデータは出発前にも確認してください",
      "body": "アクセス情報: JR・ハピラインふくい 福井駅から徒歩約10分 工事や災害、施設の営業時間などは変わるため、現地案内を優先してください。",
      "url": "https://dokorun.com/guide/gpx",
      "linkLabel": "どこランのGPX利用ガイド"
    }
  ],
  "startPoints": [
    {
      "id": "start-1",
      "name": "福井城址大名町駅側",
      "badge": "電車でアクセス",
      "destinationLat": 36.063523,
      "destinationLng": 136.217566,
      "routeAnchorLat": 36.062181,
      "routeAnchorLng": 136.217887,
      "routeMode": "loop",
      "accessText": "福井城址大名町駅からコースまで約150m",
      "facilitiesText": "設備欄と現地案内を出発前に確認してください",
      "firstSection": "地図とGPXで最初の分岐を確認してから走り始めます。",
      "routePointIndex": 0,
      "routeDistanceM": 0,
      "routeLat": 36.062181,
      "routeLng": 136.217887,
      "elevationM": 17,
      "snapGapM": 0,
      "checkpointDistances": {
        "section-1": 0,
        "section-2": 574,
        "section-3": 1369,
        "section-4": 2059,
        "section-5": 2760
      },
      "gpxHref": "/gpx/fukui-castle-loop-start-1.gpx"
    },
    {
      "id": "start-2",
      "name": "福井駅側",
      "badge": "電車でアクセス",
      "destinationLat": 36.062057,
      "destinationLng": 136.223516,
      "routeAnchorLat": 36.062687,
      "routeAnchorLng": 136.223486,
      "routeMode": "loop",
      "accessText": "福井駅からコースまで約70m",
      "facilitiesText": "設備欄と現地案内を出発前に確認してください",
      "firstSection": "地図とGPXで最初の分岐を確認してから走り始めます。",
      "routePointIndex": 35,
      "routeDistanceM": 574,
      "routeLat": 36.062687,
      "routeLng": 136.223486,
      "elevationM": 7.3,
      "snapGapM": 0,
      "checkpointDistances": {
        "section-1": 2859,
        "section-2": 0,
        "section-3": 795,
        "section-4": 1485,
        "section-5": 2186
      },
      "gpxHref": "/gpx/fukui-castle-loop-start-2.gpx"
    },
    {
      "id": "start-3",
      "name": "新福井駅側",
      "badge": "電車でアクセス",
      "destinationLat": 36.064714,
      "destinationLng": 136.226721,
      "routeAnchorLat": 36.068094,
      "routeAnchorLng": 136.225051,
      "routeMode": "loop",
      "accessText": "新福井駅からコースまで約410m",
      "facilitiesText": "設備欄と現地案内を出発前に確認してください",
      "firstSection": "地図とGPXで最初の分岐を確認してから走り始めます。",
      "routePointIndex": 67,
      "routeDistanceM": 1369,
      "routeLat": 36.068094,
      "routeLng": 136.225051,
      "elevationM": 9.5,
      "snapGapM": 0,
      "checkpointDistances": {
        "section-1": 2064,
        "section-2": 2638,
        "section-3": 0,
        "section-4": 690,
        "section-5": 1391
      },
      "gpxHref": "/gpx/fukui-castle-loop-start-3.gpx"
    },
    {
      "id": "start-4",
      "name": "仁愛女子高校駅側",
      "badge": "電車でアクセス",
      "destinationLat": 36.069319,
      "destinationLng": 136.218058,
      "routeAnchorLat": 36.068724,
      "routeAnchorLng": 136.219941,
      "routeMode": "loop",
      "accessText": "仁愛女子高校駅からコースまで約180m",
      "facilitiesText": "設備欄と現地案内を出発前に確認してください",
      "firstSection": "地図とGPXで最初の分岐を確認してから走り始めます。",
      "routePointIndex": 125,
      "routeDistanceM": 2059,
      "routeLat": 36.068724,
      "routeLng": 136.219941,
      "elevationM": 11,
      "snapGapM": 0,
      "checkpointDistances": {
        "section-1": 1374,
        "section-2": 1948,
        "section-3": 2743,
        "section-4": 0,
        "section-5": 701
      },
      "gpxHref": "/gpx/fukui-castle-loop-start-4.gpx"
    }
  ],
  "checkpoints": [
    {
      "id": "section-1",
      "name": "スタート周辺",
      "anchorLat": 36.062181,
      "anchorLng": 136.217887,
      "description": "スタート周辺の走路近隣で撮影された写真です。写真の説明: ほていや福井ショッピングセンター",
      "surfaceLabel": "舗装路",
      "caution": "歩行者と交差点を優先",
      "photo": {
        "url": "https://upload.wikimedia.org/wikipedia/commons/thumb/4/44/Uny.hoteiya.fukui.jpg/960px-Uny.hoteiya.fukui.jpg",
        "alt": "福井城址周回のスタート周辺付近",
        "caption": "福井城址周回の走路近隣で撮影された風景",
        "credit": "ブルーノ・",
        "license": "CC BY-SA 3.0",
        "sourceUrl": "https://commons.wikimedia.org/wiki/File:Uny.hoteiya.fukui.jpg"
      },
      "routePointIndex": 0,
      "routeDistanceM": 0,
      "routeLat": 36.062181,
      "routeLng": 136.217887,
      "elevationM": 17,
      "snapGapM": 0
    },
    {
      "id": "section-2",
      "name": "序盤区間",
      "anchorLat": 36.062687,
      "anchorLng": 136.223486,
      "description": "序盤区間の走路近隣で撮影された写真です。写真の説明: JR福井駅(2008/04/06)",
      "surfaceLabel": "舗装路",
      "caution": "歩行者と交差点を優先",
      "photo": {
        "url": "https://upload.wikimedia.org/wikipedia/commons/thumb/1/13/JR%E7%A6%8F%E4%BA%95%E9%A7%85%282008-04-06%29_-_panoramio.jpg/960px-JR%E7%A6%8F%E4%BA%95%E9%A7%85%282008-04-06%29_-_panoramio.jpg",
        "alt": "福井城址周回の序盤区間付近",
        "caption": "福井城址周回の走路近隣で撮影された風景",
        "credit": "kcomiida",
        "license": "CC BY-SA 3.0",
        "sourceUrl": "https://commons.wikimedia.org/wiki/File:JR%E7%A6%8F%E4%BA%95%E9%A7%85(2008-04-06)_-_panoramio.jpg"
      },
      "routePointIndex": 35,
      "routeDistanceM": 574,
      "routeLat": 36.062687,
      "routeLng": 136.223486,
      "elevationM": 7.3,
      "snapGapM": 0
    },
    {
      "id": "section-3",
      "name": "中盤区間",
      "anchorLat": 36.068094,
      "anchorLng": 136.225051,
      "description": "中盤区間の走路近隣で撮影された写真です。写真の説明: 養浩館庭園。福井市。",
      "surfaceLabel": "舗装路",
      "caution": "歩行者と交差点を優先",
      "photo": {
        "url": "https://upload.wikimedia.org/wikipedia/commons/thumb/0/04/Fukui_-_panoramio_-_kcomiida_%2812%29.jpg/960px-Fukui_-_panoramio_-_kcomiida_%2812%29.jpg",
        "alt": "福井城址周回の中盤区間付近",
        "caption": "福井城址周回の走路近隣で撮影された風景",
        "credit": "kcomiida",
        "license": "CC BY-SA 3.0",
        "sourceUrl": "https://commons.wikimedia.org/wiki/File:Fukui_-_panoramio_-_kcomiida_(12).jpg"
      },
      "routePointIndex": 67,
      "routeDistanceM": 1369,
      "routeLat": 36.068094,
      "routeLng": 136.225051,
      "elevationM": 9.5,
      "snapGapM": 0
    },
    {
      "id": "section-4",
      "name": "後半区間",
      "anchorLat": 36.068724,
      "anchorLng": 136.219941,
      "description": "後半区間の走路近隣で撮影された写真です。写真の説明: Fukui City History Museum , Fukui , Fukui prefecture , Japan",
      "surfaceLabel": "舗装路",
      "caution": "歩行者と交差点を優先",
      "photo": {
        "url": "https://upload.wikimedia.org/wikipedia/commons/thumb/4/47/Fukui_City_History_Museum01nt3200.jpg/960px-Fukui_City_History_Museum01nt3200.jpg",
        "alt": "福井城址周回の後半区間付近",
        "caption": "福井城址周回の走路近隣で撮影された風景",
        "credit": "663highland",
        "license": "CC BY 2.5",
        "sourceUrl": "https://commons.wikimedia.org/wiki/File:Fukui_City_History_Museum01nt3200.jpg"
      },
      "routePointIndex": 125,
      "routeDistanceM": 2059,
      "routeLat": 36.068724,
      "routeLng": 136.219941,
      "elevationM": 11,
      "snapGapM": 0
    },
    {
      "id": "section-5",
      "name": "終盤区間",
      "anchorLat": 36.06607,
      "anchorLng": 136.215265,
      "description": "終盤区間の走路近隣で撮影された写真です。写真の説明: 福井大仏観音",
      "surfaceLabel": "舗装路",
      "caution": "歩行者と交差点を優先",
      "photo": {
        "url": "https://upload.wikimedia.org/wikipedia/commons/thumb/c/ca/%E7%A6%8F%E4%BA%95%E5%A4%A7%E4%BB%8F%E8%A6%B3%E9%9F%B3_-_panoramio.jpg/960px-%E7%A6%8F%E4%BA%95%E5%A4%A7%E4%BB%8F%E8%A6%B3%E9%9F%B3_-_panoramio.jpg",
        "alt": "福井城址周回の終盤区間付近",
        "caption": "福井城址周回の走路近隣で撮影された風景",
        "credit": "kcomiida",
        "license": "CC BY-SA 3.0",
        "sourceUrl": "https://commons.wikimedia.org/wiki/File:%E7%A6%8F%E4%BA%95%E5%A4%A7%E4%BB%8F%E8%A6%B3%E9%9F%B3_-_panoramio.jpg"
      },
      "routePointIndex": 149,
      "routeDistanceM": 2760,
      "routeLat": 36.06607,
      "routeLng": 136.215265,
      "elevationM": 11.3,
      "snapGapM": 0
    }
  ],
  "dataProvenance": {
    "stations": "HeartRails Express",
    "photos": "Wikimedia Commons geotagged media",
    "status": "automated_review_passed"
  },
  "distanceM": 3433,
  "elevationGainM": 20,
  "elevationProfile": [
    {
      "distanceM": 0,
      "elevationM": 17
    },
    {
      "distanceM": 98,
      "elevationM": 17.3
    },
    {
      "distanceM": 196,
      "elevationM": 14.5
    },
    {
      "distanceM": 294,
      "elevationM": 12.3
    },
    {
      "distanceM": 392,
      "elevationM": 8.8
    },
    {
      "distanceM": 490,
      "elevationM": 8.9
    },
    {
      "distanceM": 588,
      "elevationM": 6.7
    },
    {
      "distanceM": 687,
      "elevationM": 7.2
    },
    {
      "distanceM": 785,
      "elevationM": 5.3
    },
    {
      "distanceM": 883,
      "elevationM": 5.2
    },
    {
      "distanceM": 981,
      "elevationM": 6.4
    },
    {
      "distanceM": 1079,
      "elevationM": 9
    },
    {
      "distanceM": 1177,
      "elevationM": 9.8
    },
    {
      "distanceM": 1275,
      "elevationM": 10.3
    },
    {
      "distanceM": 1373,
      "elevationM": 9.5
    },
    {
      "distanceM": 1471,
      "elevationM": 8.8
    },
    {
      "distanceM": 1569,
      "elevationM": 9
    },
    {
      "distanceM": 1667,
      "elevationM": 9.1
    },
    {
      "distanceM": 1765,
      "elevationM": 8.8
    },
    {
      "distanceM": 1863,
      "elevationM": 9
    },
    {
      "distanceM": 1962,
      "elevationM": 10.6
    },
    {
      "distanceM": 2060,
      "elevationM": 11
    },
    {
      "distanceM": 2158,
      "elevationM": 10.8
    },
    {
      "distanceM": 2256,
      "elevationM": 11.1
    },
    {
      "distanceM": 2354,
      "elevationM": 12
    },
    {
      "distanceM": 2452,
      "elevationM": 10.6
    },
    {
      "distanceM": 2550,
      "elevationM": 9
    },
    {
      "distanceM": 2648,
      "elevationM": 9.8
    },
    {
      "distanceM": 2746,
      "elevationM": 11.2
    },
    {
      "distanceM": 2844,
      "elevationM": 12.4
    },
    {
      "distanceM": 2942,
      "elevationM": 13.5
    },
    {
      "distanceM": 3040,
      "elevationM": 12.9
    },
    {
      "distanceM": 3139,
      "elevationM": 14.2
    },
    {
      "distanceM": 3237,
      "elevationM": 14.3
    },
    {
      "distanceM": 3335,
      "elevationM": 15.4
    },
    {
      "distanceM": 3433,
      "elevationM": 15.8
    }
  ]
}
