{
  "slug": "kamakura-kiridoshi-loop",
  "heroCheckpointId": "section-1",
  "checkpointsTitle": "コースの雰囲気",
  "intro": "鎌倉駅東口から鎌倉宮を経て天園ハイキングコースに入り、鎌倉市最高点の大平山(159m)から市境の尾根で大丸山(157m)へ立ち寄り、鎌倉七口のひとつ朝夷奈切通を下る。逗子側の久木大池から名越切通を抜けて駅へ戻る約17.6kmの周回。中世の切通しの岩壁と照葉樹の森が続き、急登が少ないためトレイル初級者のステップアップに向く。途中の熊野神社や天園休憩所が目印。",
  "warnings": [
    {
      "title": "天候と現地の通行情報を確認してください",
      "body": "自然路は天候や季節で路面・通行状況が変わります。最新の警報、現地の規制、日没時刻を確認し、無理のない装備と計画で利用してください。",
      "url": "https://www.env.go.jp/nature/nationalparks/pick-up/long-trail/beginner/",
      "linkLabel": "環境省の自然歩道初心者ガイド"
    },
    {
      "title": "コースデータは出発前にも確認してください",
      "body": "アクセス情報: JR横須賀線・江ノ島電鉄鎌倉駅 工事や災害、施設の営業時間などは変わるため、現地案内を優先してください。",
      "url": "https://dokorun.com/guide/gpx",
      "linkLabel": "どこランのGPX利用ガイド"
    }
  ],
  "startPoints": [
    {
      "id": "start-1",
      "name": "鎌倉駅側",
      "badge": "電車でアクセス",
      "destinationLat": 35.318793,
      "destinationLng": 139.550428,
      "routeAnchorLat": 35.318584,
      "routeAnchorLng": 139.551197,
      "routeMode": "loop",
      "accessText": "鎌倉駅からコースまで約70m",
      "facilitiesText": "設備欄と現地案内を出発前に確認してください",
      "firstSection": "地図とGPXで最初の分岐を確認してから走り始めます。"
    },
    {
      "id": "start-2",
      "name": "北鎌倉駅側",
      "badge": "電車でアクセス",
      "destinationLat": 35.337198,
      "destinationLng": 139.545134,
      "routeAnchorLat": 35.33337,
      "routeAnchorLng": 139.57025,
      "routeMode": "loop",
      "accessText": "北鎌倉駅からコースまで約2320m",
      "facilitiesText": "設備欄と現地案内を出発前に確認してください",
      "firstSection": "地図とGPXで最初の分岐を確認してから走り始めます。"
    },
    {
      "id": "start-3",
      "name": "六浦駅側",
      "badge": "電車でアクセス",
      "destinationLat": 35.32269,
      "destinationLng": 139.611532,
      "routeAnchorLat": 35.326599,
      "routeAnchorLng": 139.588654,
      "routeMode": "loop",
      "accessText": "六浦駅からコースまで約2110m",
      "facilitiesText": "設備欄と現地案内を出発前に確認してください",
      "firstSection": "地図とGPXで最初の分岐を確認してから走り始めます。"
    },
    {
      "id": "start-4",
      "name": "逗子駅側",
      "badge": "電車でアクセス",
      "destinationLat": 35.297392,
      "destinationLng": 139.578292,
      "routeAnchorLat": 35.31237,
      "routeAnchorLng": 139.571877,
      "routeMode": "loop",
      "accessText": "逗子駅からコースまで約1760m",
      "facilitiesText": "設備欄と現地案内を出発前に確認してください",
      "firstSection": "地図とGPXで最初の分岐を確認してから走り始めます。"
    }
  ],
  "checkpoints": [
    {
      "id": "section-1",
      "name": "スタート周辺",
      "anchorLat": 35.318584,
      "anchorLng": 139.551197,
      "description": "スタート周辺の走路近隣で撮影された写真です。写真の説明: JR鎌倉駅",
      "surfaceLabel": "舗装・未舗装",
      "caution": "歩行者と交差点を優先",
      "photo": {
        "url": "https://upload.wikimedia.org/wikipedia/commons/thumb/5/5d/JR%E9%8E%8C%E5%80%89%E9%A7%85_-_panoramio.jpg/960px-JR%E9%8E%8C%E5%80%89%E9%A7%85_-_panoramio.jpg",
        "alt": "鎌倉切通し巡りトレイルのスタート周辺付近",
        "caption": "鎌倉切通し巡りトレイルの走路近隣で撮影された風景",
        "credit": "comachiangel",
        "license": "CC BY 3.0",
        "sourceUrl": "https://commons.wikimedia.org/wiki/File:JR%E9%8E%8C%E5%80%89%E9%A7%85_-_panoramio.jpg"
      }
    },
    {
      "id": "section-2",
      "name": "序盤区間",
      "anchorLat": 35.33337,
      "anchorLng": 139.57025,
      "description": "序盤区間の走路近隣で撮影された写真です。写真の説明: ShiShi-Mai",
      "surfaceLabel": "舗装・未舗装",
      "caution": "歩行者と交差点を優先",
      "photo": {
        "url": "https://upload.wikimedia.org/wikipedia/commons/thumb/4/48/ShiShi-Mai_-_panoramio.jpg/960px-ShiShi-Mai_-_panoramio.jpg",
        "alt": "鎌倉切通し巡りトレイルの序盤区間付近",
        "caption": "鎌倉切通し巡りトレイルの走路近隣で撮影された風景",
        "credit": "Koichi Shibata",
        "license": "CC BY-SA 3.0",
        "sourceUrl": "https://commons.wikimedia.org/wiki/File:ShiShi-Mai_-_panoramio.jpg"
      }
    },
    {
      "id": "section-3",
      "name": "中盤区間",
      "anchorLat": 35.345653,
      "anchorLng": 139.589068,
      "description": "中盤区間の走路近隣で撮影された写真です。写真の説明: 神奈川県横浜市金沢区、大丸山山頂。奥は東京湾と、このように晴れていれば房総半島が見える。手前の三角形建物は八景島。",
      "surfaceLabel": "舗装・未舗装",
      "caution": "歩行者と交差点を優先",
      "photo": {
        "url": "https://upload.wikimedia.org/wikipedia/commons/thumb/6/68/Oomaruyama2.jpg/960px-Oomaruyama2.jpg",
        "alt": "鎌倉切通し巡りトレイルの中盤区間付近",
        "caption": "鎌倉切通し巡りトレイルの走路近隣で撮影された風景",
        "credit": "Yoshi Canopus",
        "license": "CC BY-SA 4.0",
        "sourceUrl": "https://commons.wikimedia.org/wiki/File:Oomaruyama2.jpg"
      }
    },
    {
      "id": "section-4",
      "name": "後半区間",
      "anchorLat": 35.326599,
      "anchorLng": 139.588654,
      "description": "後半区間の走路近隣で撮影された写真です。写真の説明: 神奈川県道204号 鎌倉市十二所（じゅうにそ）。2004年11月9日、本人撮影。",
      "surfaceLabel": "舗装・未舗装",
      "caution": "歩行者と交差点を優先",
      "photo": {
        "url": "https://upload.wikimedia.org/wikipedia/commons/8/81/%E7%A5%9E%E5%A5%88%E5%B7%9D%E7%9C%8C%E9%81%93204%E5%8F%B7%E5%8D%81%E4%BA%8C%E6%89%80%E4%BB%98%E8%BF%91.jpg",
        "alt": "鎌倉切通し巡りトレイルの後半区間付近",
        "caption": "鎌倉切通し巡りトレイルの走路近隣で撮影された風景",
        "credit": "S.fukasawa",
        "license": "CC BY-SA 3.0",
        "sourceUrl": "https://commons.wikimedia.org/wiki/File:%E7%A5%9E%E5%A5%88%E5%B7%9D%E7%9C%8C%E9%81%93204%E5%8F%B7%E5%8D%81%E4%BA%8C%E6%89%80%E4%BB%98%E8%BF%91.jpg"
      }
    },
    {
      "id": "section-5",
      "name": "終盤区間",
      "anchorLat": 35.31237,
      "anchorLng": 139.571877,
      "description": "終盤区間の走路近隣で撮影された写真です。写真の説明: オニシバリ（鎌倉市子ども自然ふれあいの森）",
      "surfaceLabel": "舗装・未舗装",
      "caution": "歩行者と交差点を優先",
      "photo": {
        "url": "https://upload.wikimedia.org/wikipedia/commons/thumb/b/bb/Onishibari_20170602.jpg/960px-Onishibari_20170602.jpg",
        "alt": "鎌倉切通し巡りトレイルの終盤区間付近",
        "caption": "鎌倉切通し巡りトレイルの走路近隣で撮影された風景",
        "credit": "Kaba-maru",
        "license": "CC BY-SA 4.0",
        "sourceUrl": "https://commons.wikimedia.org/wiki/File:Onishibari_20170602.jpg"
      }
    }
  ],
  "dataProvenance": {
    "stations": "HeartRails Express",
    "photos": "Wikimedia Commons geotagged media",
    "status": "automated_review_passed"
  }
}
