{
  "slug": "showa-kinen-park",
  "heroCheckpointId": "section-1",
  "checkpointsTitle": "コースの雰囲気",
  "intro": "国営昭和記念公園は大会でも使われる多摩最大級の定番で、陸連公認の1周5km周回を取れるのが大きな強みです。北側はフラットで走りやすく、南側に小さなアップダウンが続くため、単調すぎず脚も使えます。舗装は安定しており、距離表示も明確です。広場や花のエリアを横目に景色の変化も楽しめるため、普段のジョグだけでなく、ハーフやフルを意識したペース走、30km走、レース前の実戦練習にも向いています。",
  "warnings": [
    {
      "title": "一般利用者と交通ルールを優先してください",
      "body": "ランニング専用路ではない区間を含む場合があります。信号を守り、歩道・公園・河川敷では歩行者を優先し、混雑時は歩いて通過してください。",
      "url": "https://www.npa.go.jp/bureau/traffic/koutsuuannzennjyouhou.html",
      "linkLabel": "警察庁の交通安全情報"
    },
    {
      "title": "コースデータは出発前にも確認してください",
      "body": "アクセス情報: JR青梅線 西立川駅から徒歩2分。 工事や災害、施設の営業時間などは変わるため、現地案内を優先してください。",
      "url": "https://dokorun.com/guide/gpx",
      "linkLabel": "どこランのGPX利用ガイド"
    }
  ],
  "startPoints": [
    {
      "id": "start-1",
      "name": "東中神駅側",
      "badge": "電車でアクセス",
      "destinationLat": 35.706337,
      "destinationLng": 139.384529,
      "routeAnchorLat": 35.710328,
      "routeAnchorLng": 139.391051,
      "routeMode": "loop",
      "accessText": "東中神駅からコースまで約740m",
      "facilitiesText": "設備欄と現地案内を出発前に確認してください",
      "firstSection": "地図とGPXで最初の分岐を確認してから走り始めます。"
    },
    {
      "id": "start-2",
      "name": "武蔵砂川駅側",
      "badge": "電車でアクセス",
      "destinationLat": 35.728876,
      "destinationLng": 139.392319,
      "routeAnchorLat": 35.716752,
      "routeAnchorLng": 139.392316,
      "routeMode": "loop",
      "accessText": "武蔵砂川駅からコースまで約1350m",
      "facilitiesText": "設備欄と現地案内を出発前に確認してください",
      "firstSection": "地図とGPXで最初の分岐を確認してから走り始めます。"
    },
    {
      "id": "start-3",
      "name": "高松駅側",
      "badge": "電車でアクセス",
      "destinationLat": 35.710158,
      "destinationLng": 139.413242,
      "routeAnchorLat": 35.716132,
      "routeAnchorLng": 139.399035,
      "routeMode": "loop",
      "accessText": "高松駅からコースまで約1450m",
      "facilitiesText": "設備欄と現地案内を出発前に確認してください",
      "firstSection": "地図とGPXで最初の分岐を確認してから走り始めます。"
    },
    {
      "id": "start-4",
      "name": "西立川駅側",
      "badge": "電車でアクセス",
      "destinationLat": 35.703526,
      "destinationLng": 139.393556,
      "routeAnchorLat": 35.707151,
      "routeAnchorLng": 139.399019,
      "routeMode": "loop",
      "accessText": "西立川駅からコースまで約640m",
      "facilitiesText": "設備欄と現地案内を出発前に確認してください",
      "firstSection": "地図とGPXで最初の分岐を確認してから走り始めます。"
    }
  ],
  "checkpoints": [
    {
      "id": "section-1",
      "name": "スタート周辺",
      "anchorLat": 35.710328,
      "anchorLng": 139.391051,
      "description": "スタート周辺の走路近隣で撮影された写真です。写真の説明: Photographed at Showa Kinen Park. 昭和記念公園にて [ Nikon D4, Kenko Mirror Lens 800mm f/8 DX, 1/1000sec, ISO1000, Lightroom 5 ]",
      "surfaceLabel": "舗装路",
      "caution": "歩行者と交差点を優先",
      "photo": {
        "url": "https://upload.wikimedia.org/wikipedia/commons/thumb/9/93/Spring_flower_%2813245322074%29.jpg/960px-Spring_flower_%2813245322074%29.jpg",
        "alt": "国営昭和記念公園のスタート周辺付近",
        "caption": "国営昭和記念公園の走路近隣で撮影された風景",
        "credit": "Takashi Hososhima from Tokyo, Japan",
        "license": "CC BY-SA 2.0",
        "sourceUrl": "https://commons.wikimedia.org/wiki/File:Spring_flower_(13245322074).jpg"
      }
    },
    {
      "id": "section-2",
      "name": "序盤区間",
      "anchorLat": 35.716752,
      "anchorLng": 139.392316,
      "description": "序盤区間の走路近隣で撮影された写真です。写真の説明: Maple ( Acer palmatum ) in Showa Memorial Park",
      "surfaceLabel": "舗装路",
      "caution": "歩行者と交差点を優先",
      "photo": {
        "url": "https://upload.wikimedia.org/wikipedia/commons/thumb/0/06/Maple_in_Showa_Memorial_Park_2.jpg/960px-Maple_in_Showa_Memorial_Park_2.jpg",
        "alt": "国営昭和記念公園の序盤区間付近",
        "caption": "国営昭和記念公園の走路近隣で撮影された風景",
        "credit": "kanegen",
        "license": "CC BY 2.0",
        "sourceUrl": "https://commons.wikimedia.org/wiki/File:Maple_in_Showa_Memorial_Park_2.jpg"
      }
    },
    {
      "id": "section-3",
      "name": "中盤区間",
      "anchorLat": 35.716132,
      "anchorLng": 139.399035,
      "description": "中盤区間の走路近隣で撮影された写真です。写真の説明: Cosmos in Showa Memorial Park .",
      "surfaceLabel": "舗装路",
      "caution": "歩行者と交差点を優先",
      "photo": {
        "url": "https://upload.wikimedia.org/wikipedia/commons/thumb/9/93/Cosmos_001.jpg/960px-Cosmos_001.jpg",
        "alt": "国営昭和記念公園の中盤区間付近",
        "caption": "国営昭和記念公園の走路近隣で撮影された風景",
        "credit": "kanegen from Tokyo, Japan",
        "license": "CC BY 2.0",
        "sourceUrl": "https://commons.wikimedia.org/wiki/File:Cosmos_001.jpg"
      }
    },
    {
      "id": "section-4",
      "name": "後半区間",
      "anchorLat": 35.707151,
      "anchorLng": 139.399019,
      "description": "後半区間の走路近隣で撮影された写真です。写真の説明: It seems sanshuyu also have nice honey as honey bee is working on them. サンシュユにも美味しい蜜があるのでしょうね、ミツバチがせっせとサンシュユの花を飛び回っていました。 [ Nikon D5200, Nik",
      "surfaceLabel": "舗装路",
      "caution": "歩行者と交差点を優先",
      "photo": {
        "url": "https://upload.wikimedia.org/wikipedia/commons/thumb/f/f3/Honey_bee_and_sanshuyu_%2813435220324%29.jpg/960px-Honey_bee_and_sanshuyu_%2813435220324%29.jpg",
        "alt": "国営昭和記念公園の後半区間付近",
        "caption": "国営昭和記念公園の走路近隣で撮影された風景",
        "credit": "Takashi Hososhima from Tokyo, Japan",
        "license": "CC BY-SA 2.0",
        "sourceUrl": "https://commons.wikimedia.org/wiki/File:Honey_bee_and_sanshuyu_(13435220324).jpg"
      }
    },
    {
      "id": "section-5",
      "name": "終盤区間",
      "anchorLat": 35.705076,
      "anchorLng": 139.392733,
      "description": "終盤区間の走路近隣で撮影された写真です。写真の説明: 11月下旬の 昭和記念公園 。",
      "surfaceLabel": "舗装路",
      "caution": "歩行者と交差点を優先",
      "photo": {
        "url": "https://upload.wikimedia.org/wikipedia/commons/thumb/8/83/A_warm_autumn_day_in_Showa_kinen_park.jpg/960px-A_warm_autumn_day_in_Showa_kinen_park.jpg",
        "alt": "国営昭和記念公園の終盤区間付近",
        "caption": "国営昭和記念公園の走路近隣で撮影された風景",
        "credit": "oisa from Tokyo, Japan",
        "license": "CC BY 2.0",
        "sourceUrl": "https://commons.wikimedia.org/wiki/File:A_warm_autumn_day_in_Showa_kinen_park.jpg"
      }
    }
  ],
  "dataProvenance": {
    "stations": "HeartRails Express",
    "photos": "Wikimedia Commons geotagged media",
    "status": "automated_review_passed"
  }
}
